[{"lat":37.792606353759766,"lon":-122.39898681640625,"name":"Bay Area Futurists Intelligence Explosion 2018","address":"Virtual"},{"lat":37.77711868286133,"lon":-122.41963958740234,"name":"Travel to The Wonders of Italy","address":"San Francisco"},{"lat":37.80682373046875,"lon":-122.43177032470703,"name":"MARCH SHAMAN CIRCLE: YOUR SPIRIT VEGETABLE","address":"2 Marina Blvd, Building D"},{"lat":37.77503204345703,"lon":-122.41997528076172,"name":"Self-Directed 401k & IRA Real Estate Investing w/ Bill Neville","address":"1540 Market Street"},{"lat":37.77492904663086,"lon":-122.41941833496094,"name":"Private Winter Night-time Tour of Alcatraz","address":"Pier 33, Hornblower Alcatraz Landing"},{"lat":37.777061462402344,"lon":-122.41680145263672,"name":"Miners Aren't Your Friends + In-Depth Blockchain Analytics","address":"1355 Market Street, Suite #488"},{"lat":37.792537689208984,"lon":-122.39459228515625,"name":"Beauty & Fashion: a revolution is under way, with new emerging business models","address":"60 Spear Street"},{"lat":37.80575180053711,"lon":-122.44908142089844,"name":"SF Presidio Exploration Hike - Moderate","address":"1199 East Beach, Presidio San Francisco, CA 94129"},{"lat":37.780181884765625,"lon":-122.48152923583984,"name":"April meetup","address":"22nd Ave & Geary Ave"},{"lat":37.78462219238281,"lon":-122.39823150634766,"name":"Augmented Reality Heads of Product Panel + Demos","address":"680 Folsom Street"},{"lat":37.786659240722656,"lon":-122.39997100830078,"name":"Deep Dive into Google TPUs + Continuously Train & Deploy Models with Kafka, GPUs","address":"140 New Montgomery St., 8th floor"},{"lat":37.77492904663086,"lon":-122.41941833496094,"name":"Data platform in cloud,Slack metrics delivery & Detect cancer with deep learning","address":"140 New Montgomery St, 140 New Montgomery Street"},{"lat":37.78446960449219,"lon":-122.40798950195312,"name":"Writing when things are wrong (UX panel + activity)","address":"at Powell St BART station"},{"lat":37.79852294921875,"lon":-122.45145416259766,"name":"Ridge to Bridge 2018 - 4th year supporting a great cause.","address":"558 Presidio Blvd Ste B "},{"lat":37.78226852416992,"lon":-122.39125061035156,"name":"React.js Hackathon @GitHub ","address":"88 Colin P Kelly Jr St"},{"lat":37.78412628173828,"lon":-122.39582824707031,"name":"Udemy, Airbnb & IBM: Experimentation, Experimentation and More","address":"600 Harrison Street"},{"lat":37.7900505065918,"lon":-122.39019012451172,"name":"Things Nobody Told You About Building Conversational UI | RxJava Extended","address":"345 Spear St, 7th floor"},{"lat":37.787960052490234,"lon":-122.3961181640625,"name":"SF Crypto Devs Presents Chia Deep Dive pt 2: Proof of Space & Time w/ Bram Cohen","address":"505 Howard St."},{"lat":37.7873649597168,"lon":-122.3965072631836,"name":"WebGL/WebVR at GDC!","address":"44 Tehama Street"},{"lat":37.77492904663086,"lon":-122.41941833496094,"name":"MLUX Tech Talks: Salesforce","address":"101 Spear St, Rincon Center "},{"lat":37.7940788269043,"lon":-122.39513397216797,"name":"Diversity in Tech at Autodesk","address":"1 Market Street #500"},{"lat":37.78969955444336,"lon":-122.39025115966797,"name":"Modern web tooling and the future of debugging","address":"345 Spear Street"},{"lat":37.795291900634766,"lon":-122.3939208984375,"name":"[o/n] [Beginner] China Camp State Park, 2Days-1Night, weekend getaway.","address":"1 Ferry Building"},{"lat":37.78388977050781,"lon":-122.3952407836914,"name":"React Native Bay Area @ PlayStation!","address":"400 2nd Street, San Francisco, CA 94107"},{"lat":37.765907287597656,"lon":-122.38744354248047,"name":"Write/Speak/Code: Speak your Talk!","address":"499 Illinois Street"},{"lat":37.750606536865234,"lon":-122.39567565917969,"name":"April: So You Want to Talk About Race by Ijeoma Oluo","address":"1250 Missouri St. #111"},{"lat":37.78340530395508,"lon":-122.39935302734375,"name":"Running Containers at Scale","address":"725 Folsom St"},{"lat":37.78532409667969,"lon":-122.40374755859375,"name":"[SOMA] Fine wine tastings at Press Club [FREE]","address":"20 Yerba Buena Ln"},{"lat":37.76456832885742,"lon":-122.4657211303711,"name":"[Inner Sunset] Texas hold'em poker night and pizza [$10 buy in]","address":"1281 8th ave"},{"lat":37.79136657714844,"lon":-122.39373779296875,"name":"Bay Area Apache Spark & Women in Big Data @ Databricks HQ, SF","address":"160 Spear St, Floor 13"},{"lat":37.78529357910156,"lon":-122.39559173583984,"name":"OWASP Meetup - SF March 2018","address":"303 Second St."},{"lat":37.78666305541992,"lon":-122.39977264404297,"name":"Netflix fmr Product VP on Branding for Builders","address":"140 New Montgomery"},{"lat":37.787601470947266,"lon":-122.39664459228516,"name":"Financial Services Lab w/ Digit and Nova Credit","address":"44 Tehama Street"},{"lat":37.785675048828125,"lon":-122.40541076660156,"name":"Machine Learning in Scala at Medium","address":"799 Market St."},{"lat":37.77674102783203,"lon":-122.41637420654297,"name":"Oscar Boykin on Reproducible Machine Learning with Functional Programming","address":"1355 Market Street"},{"lat":37.78622817993164,"lon":-122.40423583984375,"name":"Biotech Networking @ San Francisco","address":"20 Yerba Buena Lane"},{"lat":37.75008010864258,"lon":-122.4336929321289,"name":"Yoga & Skincare workshop - Nourish your skin from the inside and out","address":"1431 Castro Street"},{"lat":37.77109146118164,"lon":-122.40919494628906,"name":"Lifograph SF Pitch- Wharton Angels, Harvard Angels & Life Science Angels ($50M)","address":"1112 Bryant Street"},{"lat":37.79119110107422,"lon":-122.39836883544922,"name":"Investing Out of State (after all California is the best market ever)?","address":"425 Market Street"},{"lat":37.784366607666016,"lon":-122.48580169677734,"name":"Princes of the Apocalypse ‚Äì 3rd Anniversary Game Session","address":"274 26th Ave."},{"lat":37.79220199584961,"lon":-122.3935546875,"name":"Web Performance Meetup: March","address":"131 Spear Ave."},{"lat":37.78340530395508,"lon":-122.39935302734375,"name":"[Save the Date] Hyperledger SF ‚Äì Running Nodes + Consensus Algos (Mon, 4/2) ","address":"725 Folsom St"},{"lat":37.79389572143555,"lon":-122.40037536621094,"name":"DevOps Exchange March","address":"275 Battery Street, 23rd Floor"},{"lat":37.784942626953125,"lon":-122.40553283691406,"name":"Panel Discussion: Leveraging User Research in Health Tech","address":"22 4th St, 6th Floor"},{"lat":37.77686309814453,"lon":-122.42439270019531,"name":"Meet and greet...and cocktails","address":"488 A Hayes St San Francisco, CA 94102 Hayes Valley"},{"lat":37.786338806152344,"lon":-122.39824676513672,"name":"Special Event: Product Tank 8 Years Celebration","address":"222 2nd Street"},{"lat":37.77570343017578,"lon":-122.44607543945312,"name":"March Meetup - Barrel Head Brewhouse","address":"1785 Fulton Street"},{"lat":37.78775405883789,"lon":-122.40401458740234,"name":"There are No Criers Here & Livable Code","address":"23 Geary Street, Suite 500"},{"lat":37.78226852416992,"lon":-122.39125061035156,"name":"Cathie Yun on Bulletproofs: Short Proofs for Confidential Transactions and More","address":"88 Colin P Kelly Jr Street"},{"lat":37.79548645019531,"lon":-122.39360046386719,"name":"The S. F. Coast Walk - Ferry Building to the Zoo","address":" "},{"lat":37.78118133544922,"lon":-122.39575958251953,"name":"HDDG 28: Optics and FPGAs","address":"500 3rd Street, Suite 230"},{"lat":37.77711868286133,"lon":-122.41963958740234,"name":"Explore The Land of Ethereum!","address":"7th Floor 25 Taylor St"},{"lat":37.76725769042969,"lon":-122.4011459350586,"name":"Connecting letters and writing quotes: Intermediate Modern Calligraphy","address":"10 Carolina Street"},{"lat":37.7845573425293,"lon":-122.39856719970703,"name":"Official April BARUG Meetup","address":"680 Folsom Street "},{"lat":37.77439880371094,"lon":-122.40193176269531,"name":"SF Hardware Startup Meetup | Bolt's New Amazing SF Space!! ","address":"724 Brannan St."},{"lat":37.77610397338867,"lon":-122.42412567138672,"name":"Boozy Saturday exploration of Hayes Valley üòéüç∫","address":"424 Octavia St"},{"lat":37.8077507019043,"lon":-122.4749526977539,"name":"Sunrise on the Golden Gate Bridge and hike to a Sausalito morning","address":" Golden Gate Bridge"},{"lat":37.7768440246582,"lon":-122.41661834716797,"name":"How to Validate Product Direction with Strategic Research and Experimentation","address":"1355 Market Street"},{"lat":37.775997161865234,"lon":-122.41847229003906,"name":"Taking Serverless to the Edge","address":"1446 Market Street"},{"lat":37.787147521972656,"lon":-122.40402221679688,"name":"Exploring the Lightning Network Daemon (lnd) 0.4 Beta Release","address":"717 Market Street, Suite 100"},{"lat":37.78435516357422,"lon":-122.48579406738281,"name":"Shadowrun: Anarchy - Game Session #12","address":"274 26th Ave."},{"lat":37.781211853027344,"lon":-122.40813446044922,"name":"Tokenizing Real-World Assets on Stellar","address":"981 Mission Street"},{"lat":37.78999710083008,"lon":-122.39990997314453,"name":"[Visualization Nights] Form and Content: Constructing Meaningful Visualizations","address":"555 Market Street"},{"lat":37.77492904663086,"lon":-122.41941833496094,"name":"Discuss-Beauty is a Wound","address":"On Hayes St/Broderick near Alamo Square--address will be sent to members who RSVP"}]